{
"type": "FeatureCollection",
"name": "gis_osm_places_free_1",
"crs": { "type": "name", "properties": { "name": "urn:ogc:def:crs:OGC:1.3:CRS84" } },
"features": [
{ "type": "Feature", "properties": { "osm_id": "6895317489", "code": 1003, "fclass": "village", "population": 0, "name": "Sanas Nagar" }, "geometry": { "type": "Point", "coordinates": [ 73.8247775, 18.3989993 ] } },
{ "type": "Feature", "properties": { "osm_id": "10720795089", "code": 1003, "fclass": "village", "population": 0, "name": "Kolewadi" }, "geometry": { "type": "Point", "coordinates": [ 73.8319873, 18.4064447 ] } },
{ "type": "Feature", "properties": { "osm_id": "3824586716", "code": 1002, "fclass": "town", "population": 0, "name": "Dhayari" }, "geometry": { "type": "Point", "coordinates": [ 73.8190432, 18.4373984 ] } },
{ "type": "Feature", "properties": { "osm_id": "1313925539", "code": 1050, "fclass": "locality", "population": 0, "name": "Grande View 7 Township" }, "geometry": { "type": "Point", "coordinates": [ 73.8335752, 18.4563154 ] } },
{ "type": "Feature", "properties": { "osm_id": "8711632383", "code": 1050, "fclass": "locality", "population": 0, "name": "Symphony IT Park" }, "geometry": { "type": "Point", "coordinates": [ 73.7978911, 18.4590912 ] } },
{ "type": "Feature", "properties": { "osm_id": "3385571867", "code": 1010, "fclass": "suburb", "population": 0, "name": "Shivane" }, "geometry": { "type": "Point", "coordinates": [ 73.7930648, 18.4670411 ] } },
{ "type": "Feature", "properties": { "osm_id": "5697466015", "code": 1010, "fclass": "suburb", "population": 0, "name": "Vadgaon Budruk" }, "geometry": { "type": "Point", "coordinates": [ 73.825365, 18.4674971 ] } },
{ "type": "Feature", "properties": { "osm_id": "10720795095", "code": 1040, "fclass": "region", "population": 0, "name": "Bobdev Gath" }, "geometry": { "type": "Point", "coordinates": [ 73.9055335, 18.4093524 ] } },
{ "type": "Feature", "properties": { "osm_id": "1886884521", "code": 1050, "fclass": "locality", "population": 0, "name": "Gauliwada" }, "geometry": { "type": "Point", "coordinates": [ 73.8482104, 18.4427002 ] } },
{ "type": "Feature", "properties": { "osm_id": "8711632384", "code": 1050, "fclass": "locality", "population": 0, "name": "Sai Shradha Bungalow Society" }, "geometry": { "type": "Point", "coordinates": [ 73.9001034, 18.4466369 ] } },
{ "type": "Feature", "properties": { "osm_id": "960205568", "code": 1050, "fclass": "locality", "population": 0, "name": "Datta nagar Chowk" }, "geometry": { "type": "Point", "coordinates": [ 73.8497146, 18.4497616 ] } },
{ "type": "Feature", "properties": { "osm_id": "245645249", "code": 1003, "fclass": "village", "population": 0, "name": "Katraj" }, "geometry": { "type": "Point", "coordinates": [ 73.8563196, 18.4536792 ] } },
{ "type": "Feature", "properties": { "osm_id": "1224903392", "code": 1003, "fclass": "village", "population": 0, "name": "Kondhwa Budruk" }, "geometry": { "type": "Point", "coordinates": [ 73.8865816, 18.4576183 ] } },
{ "type": "Feature", "properties": { "osm_id": "9123598679", "code": 1050, "fclass": "locality", "population": 0, "name": "Keshav Housing Society" }, "geometry": { "type": "Point", "coordinates": [ 73.849417, 18.464614 ] } },
{ "type": "Feature", "properties": { "osm_id": "1223050242", "code": 1010, "fclass": "suburb", "population": 0, "name": "Krushna Nagar" }, "geometry": { "type": "Point", "coordinates": [ 73.9178308, 18.4739189 ] } },
{ "type": "Feature", "properties": { "osm_id": "1998625324", "code": 1010, "fclass": "suburb", "population": 0, "name": "Kondhwa" }, "geometry": { "type": "Point", "coordinates": [ 73.8940627, 18.4779905 ] } },
{ "type": "Feature", "properties": { "osm_id": "4720625490", "code": 1050, "fclass": "locality", "population": 0, "name": null }, "geometry": { "type": "Point", "coordinates": [ 73.8614923, 18.4817363 ] } },
{ "type": "Feature", "properties": { "osm_id": "6934806235", "code": 1003, "fclass": "village", "population": 0, "name": "Holkarwadi" }, "geometry": { "type": "Point", "coordinates": [ 73.9399714, 18.4389434 ] } },
{ "type": "Feature", "properties": { "osm_id": "6919758043", "code": 1003, "fclass": "village", "population": 0, "name": "Manter Wadi" }, "geometry": { "type": "Point", "coordinates": [ 73.961874, 18.4656502 ] } },
{ "type": "Feature", "properties": { "osm_id": "10310549704", "code": 1003, "fclass": "village", "population": 0, "name": "Fursungi" }, "geometry": { "type": "Point", "coordinates": [ 73.9791077, 18.4726271 ] } },
{ "type": "Feature", "properties": { "osm_id": "2280623602", "code": 1050, "fclass": "locality", "population": 0, "name": "Hadapsar" }, "geometry": { "type": "Point", "coordinates": [ 73.9379146, 18.5007741 ] } },
{ "type": "Feature", "properties": { "osm_id": "7067524228", "code": 1050, "fclass": "locality", "population": 0, "name": "Shree Lakshmi Classic Housing Society" }, "geometry": { "type": "Point", "coordinates": [ 73.9297646, 18.5058767 ] } },
{ "type": "Feature", "properties": { "osm_id": "8256715250", "code": 1010, "fclass": "suburb", "population": 0, "name": "Gopalpatti" }, "geometry": { "type": "Point", "coordinates": [ 73.9650893, 18.5097262 ] } },
{ "type": "Feature", "properties": { "osm_id": "5697466013", "code": 1010, "fclass": "suburb", "population": 0, "name": "Tukai Nagar" }, "geometry": { "type": "Point", "coordinates": [ 73.8277026, 18.4738006 ] } },
{ "type": "Feature", "properties": { "osm_id": "5697466014", "code": 1010, "fclass": "suburb", "population": 0, "name": "Manik Baug" }, "geometry": { "type": "Point", "coordinates": [ 73.8210842, 18.474885 ] } },
{ "type": "Feature", "properties": { "osm_id": "12361503272", "code": 1002, "fclass": "town", "population": 0, "name": "Anandnagar" }, "geometry": { "type": "Point", "coordinates": [ 73.8240754, 18.4784152 ] } },
{ "type": "Feature", "properties": { "osm_id": "2096194163", "code": 1050, "fclass": "locality", "population": 0, "name": "Hingne Khurd" }, "geometry": { "type": "Point", "coordinates": [ 73.8250995, 18.4796701 ] } },
{ "type": "Feature", "properties": { "osm_id": "1224043292", "code": 1010, "fclass": "suburb", "population": 0, "name": "Warje" }, "geometry": { "type": "Point", "coordinates": [ 73.8001705, 18.4820444 ] } },
{ "type": "Feature", "properties": { "osm_id": "2096194167", "code": 1050, "fclass": "locality", "population": 0, "name": "Vitthalwadi" }, "geometry": { "type": "Point", "coordinates": [ 73.8261509, 18.4821529 ] } },
{ "type": "Feature", "properties": { "osm_id": "3645664490", "code": 1010, "fclass": "suburb", "population": 0, "name": "Karve Nagar" }, "geometry": { "type": "Point", "coordinates": [ 73.821347, 18.4894205 ] } },
{ "type": "Feature", "properties": { "osm_id": "4127490279", "code": 1050, "fclass": "locality", "population": 0, "name": "Aditya Garden City" }, "geometry": { "type": "Point", "coordinates": [ 73.7890146, 18.489525 ] } },
{ "type": "Feature", "properties": { "osm_id": "245646314", "code": 1050, "fclass": "locality", "population": 0, "name": "Ganeshnagar" }, "geometry": { "type": "Point", "coordinates": [ 73.8355304, 18.5046443 ] } },
{ "type": "Feature", "properties": { "osm_id": "762014603", "code": 1050, "fclass": "locality", "population": 0, "name": "Paud Phata" }, "geometry": { "type": "Point", "coordinates": [ 73.8256238, 18.5061568 ] } },
{ "type": "Feature", "properties": { "osm_id": "7167464258", "code": 1050, "fclass": "locality", "population": 0, "name": "Defence Colony (DAD) - Wing A" }, "geometry": { "type": "Point", "coordinates": [ 73.8774146, 18.4830468 ] } },
{ "type": "Feature", "properties": { "osm_id": "567266384", "code": 1010, "fclass": "suburb", "population": 0, "name": "Wanawadi" }, "geometry": { "type": "Point", "coordinates": [ 73.8986672, 18.4883683 ] } },
{ "type": "Feature", "properties": { "osm_id": "245645880", "code": 1010, "fclass": "suburb", "population": 0, "name": "Sahakar Nagar" }, "geometry": { "type": "Point", "coordinates": [ 73.8475301, 18.4900796 ] } },
{ "type": "Feature", "properties": { "osm_id": "679053494", "code": 1050, "fclass": "locality", "population": 0, "name": "Gultekdi" }, "geometry": { "type": "Point", "coordinates": [ 73.8676329, 18.4938936 ] } },
{ "type": "Feature", "properties": { "osm_id": "11445829682", "code": 1010, "fclass": "suburb", "population": 0, "name": "Mukund Nagar" }, "geometry": { "type": "Point", "coordinates": [ 73.8662236, 18.4952174 ] } },
{ "type": "Feature", "properties": { "osm_id": "245646553", "code": 1010, "fclass": "suburb", "population": 0, "name": "Swargate" }, "geometry": { "type": "Point", "coordinates": [ 73.8586255, 18.5006768 ] } },
{ "type": "Feature", "properties": { "osm_id": "245646391", "code": 1010, "fclass": "suburb", "population": 0, "name": "Dattawadi" }, "geometry": { "type": "Point", "coordinates": [ 73.8430106, 18.5006978 ] } },
{ "type": "Feature", "properties": { "osm_id": "672691437", "code": 1010, "fclass": "suburb", "population": 0, "name": "Fatima Nagar" }, "geometry": { "type": "Point", "coordinates": [ 73.902129, 18.5045098 ] } },
{ "type": "Feature", "properties": { "osm_id": "245646606", "code": 1050, "fclass": "locality", "population": 0, "name": "Lokmanya Nagar" }, "geometry": { "type": "Point", "coordinates": [ 73.8461938, 18.5052305 ] } },
{ "type": "Feature", "properties": { "osm_id": "245646513", "code": 1050, "fclass": "locality", "population": 0, "name": "Municipal Colony" }, "geometry": { "type": "Point", "coordinates": [ 73.8548699, 18.508672 ] } },
{ "type": "Feature", "properties": { "osm_id": "245646635", "code": 1010, "fclass": "suburb", "population": 0, "name": "Navi Peth" }, "geometry": { "type": "Point", "coordinates": [ 73.84415, 18.50927 ] } },
{ "type": "Feature", "properties": { "osm_id": "2266580378", "code": 1010, "fclass": "suburb", "population": 0, "name": "Sadashiv Peth" }, "geometry": { "type": "Point", "coordinates": [ 73.8502149, 18.5107764 ] } },
{ "type": "Feature", "properties": { "osm_id": "669519639", "code": 1010, "fclass": "suburb", "population": 0, "name": "Pune Cantonment" }, "geometry": { "type": "Point", "coordinates": [ 73.8851018, 18.5109073 ] } },
{ "type": "Feature", "properties": { "osm_id": "1645621271", "code": 1010, "fclass": "suburb", "population": 0, "name": "Shukrawar Peth" }, "geometry": { "type": "Point", "coordinates": [ 73.8540109, 18.5113537 ] } },
{ "type": "Feature", "properties": { "osm_id": "1645591500", "code": 1010, "fclass": "suburb", "population": 0, "name": "Guruwar Peth" }, "geometry": { "type": "Point", "coordinates": [ 73.8576197, 18.5113589 ] } },
{ "type": "Feature", "properties": { "osm_id": "247669703", "code": 1050, "fclass": "locality", "population": 0, "name": "Sarbatwala Chowk" }, "geometry": { "type": "Point", "coordinates": [ 73.8769249, 18.5147207 ] } },
{ "type": "Feature", "properties": { "osm_id": "245646887", "code": 1010, "fclass": "suburb", "population": 0, "name": "Ganesh Peth" }, "geometry": { "type": "Point", "coordinates": [ 73.8647366, 18.5154218 ] } },
{ "type": "Feature", "properties": { "osm_id": "672156914", "code": 1010, "fclass": "suburb", "population": 0, "name": "Narayan Peth" }, "geometry": { "type": "Point", "coordinates": [ 73.8510765, 18.5155793 ] } },
{ "type": "Feature", "properties": { "osm_id": "678801313", "code": 1050, "fclass": "locality", "population": 0, "name": "Budhwar Peth" }, "geometry": { "type": "Point", "coordinates": [ 73.858037, 18.5175599 ] } },
{ "type": "Feature", "properties": { "osm_id": "2266580379", "code": 1010, "fclass": "suburb", "population": 0, "name": "Shaniwar Peth" }, "geometry": { "type": "Point", "coordinates": [ 73.8524863, 18.5192839 ] } },
{ "type": "Feature", "properties": { "osm_id": "762014567", "code": 1050, "fclass": "locality", "population": 0, "name": "Nal Stop" }, "geometry": { "type": "Point", "coordinates": [ 73.8310019, 18.5086644 ] } },
{ "type": "Feature", "properties": { "osm_id": "1645629886", "code": 1010, "fclass": "suburb", "population": 0, "name": "Erandwane" }, "geometry": { "type": "Point", "coordinates": [ 73.8318432, 18.5087486 ] } },
{ "type": "Feature", "properties": { "osm_id": "674076717", "code": 1010, "fclass": "suburb", "population": 0, "name": "Deccan Gymkhana" }, "geometry": { "type": "Point", "coordinates": [ 73.84116, 18.5158926 ] } },
{ "type": "Feature", "properties": { "osm_id": "1838679859", "code": 1050, "fclass": "locality", "population": 0, "name": "Swami Vivekanand Chowk" }, "geometry": { "type": "Point", "coordinates": [ 73.8409165, 18.5226744 ] } },
{ "type": "Feature", "properties": { "osm_id": "11401877812", "code": 1050, "fclass": "locality", "population": 0, "name": "Vetalbaba Chowk" }, "geometry": { "type": "Point", "coordinates": [ 73.8299099, 18.5290164 ] } },
{ "type": "Feature", "properties": { "osm_id": "761948629", "code": 1010, "fclass": "suburb", "population": 0, "name": "Model Colony" }, "geometry": { "type": "Point", "coordinates": [ 73.8374513, 18.5314302 ] } },
{ "type": "Feature", "properties": { "osm_id": "2203119230", "code": 1050, "fclass": "locality", "population": 0, "name": "Vaiawadi" }, "geometry": { "type": "Point", "coordinates": [ 73.8275122, 18.5328715 ] } },
{ "type": "Feature", "properties": { "osm_id": "761969935", "code": 1010, "fclass": "suburb", "population": 0, "name": "Pashan" }, "geometry": { "type": "Point", "coordinates": [ 73.7952542, 18.5386704 ] } },
{ "type": "Feature", "properties": { "osm_id": "6046074154", "code": 1050, "fclass": "locality", "population": 0, "name": "Pune University Chowk" }, "geometry": { "type": "Point", "coordinates": [ 73.8286443, 18.5422267 ] } },
{ "type": "Feature", "properties": { "osm_id": "871528360", "code": 1050, "fclass": "locality", "population": 0, "name": "Baner Phata" }, "geometry": { "type": "Point", "coordinates": [ 73.809553, 18.5499129 ] } },
{ "type": "Feature", "properties": { "osm_id": "16174445", "code": 1001, "fclass": "city", "population": 3115431, "name": "Pune" }, "geometry": { "type": "Point", "coordinates": [ 73.8545071, 18.5213738 ] } },
{ "type": "Feature", "properties": { "osm_id": "245647083", "code": 1010, "fclass": "suburb", "population": 0, "name": "Kasba Peth" }, "geometry": { "type": "Point", "coordinates": [ 73.8582903, 18.5219205 ] } },
{ "type": "Feature", "properties": { "osm_id": "1232209872", "code": 1010, "fclass": "suburb", "population": 0, "name": "Somwar Peth" }, "geometry": { "type": "Point", "coordinates": [ 73.8652393, 18.5220747 ] } },
{ "type": "Feature", "properties": { "osm_id": "2258420056", "code": 1010, "fclass": "suburb", "population": 0, "name": "Mangalwar Peth" }, "geometry": { "type": "Point", "coordinates": [ 73.8592081, 18.5243388 ] } },
{ "type": "Feature", "properties": { "osm_id": "674922373", "code": 1010, "fclass": "suburb", "population": 0, "name": "Ghorpuri" }, "geometry": { "type": "Point", "coordinates": [ 73.9000956, 18.5268544 ] } },
{ "type": "Feature", "properties": { "osm_id": "11505392607", "code": 1050, "fclass": "locality", "population": 0, "name": "Jnaneshwar Paduka Chowk" }, "geometry": { "type": "Point", "coordinates": [ 73.8422558, 18.5269006 ] } },
{ "type": "Feature", "properties": { "osm_id": "1229128806", "code": 1010, "fclass": "suburb", "population": 0, "name": "Shivajinagar" }, "geometry": { "type": "Point", "coordinates": [ 73.8478247, 18.5294586 ] } },
{ "type": "Feature", "properties": { "osm_id": "7167464266", "code": 1050, "fclass": "locality", "population": 0, "name": "Ganga Orchard" }, "geometry": { "type": "Point", "coordinates": [ 73.9130169, 18.5316164 ] } },
{ "type": "Feature", "properties": { "osm_id": "245647690", "code": 1050, "fclass": "locality", "population": 0, "name": "Ashoknagar" }, "geometry": { "type": "Point", "coordinates": [ 73.8427674, 18.5329934 ] } },
{ "type": "Feature", "properties": { "osm_id": "9121850286", "code": 1050, "fclass": "locality", "population": 0, "name": "Koregaon Park" }, "geometry": { "type": "Point", "coordinates": [ 73.8929915, 18.5377173 ] } },
{ "type": "Feature", "properties": { "osm_id": "8255415833", "code": 1003, "fclass": "village", "population": 0, "name": "Manjari" }, "geometry": { "type": "Point", "coordinates": [ 73.9871692, 18.5236232 ] } },
{ "type": "Feature", "properties": { "osm_id": "1754044068", "code": 1010, "fclass": "suburb", "population": 0, "name": "Keshav Nagar" }, "geometry": { "type": "Point", "coordinates": [ 73.9383844, 18.5322658 ] } },
{ "type": "Feature", "properties": { "osm_id": "638665220", "code": 1010, "fclass": "suburb", "population": 0, "name": "Mundhwa" }, "geometry": { "type": "Point", "coordinates": [ 73.9298264, 18.5343218 ] } },
{ "type": "Feature", "properties": { "osm_id": "1225165226", "code": 1050, "fclass": "locality", "population": 0, "name": "Sharad Nagar" }, "geometry": { "type": "Point", "coordinates": [ 73.9461812, 18.5367118 ] } },
{ "type": "Feature", "properties": { "osm_id": "1796628053", "code": 1010, "fclass": "suburb", "population": 0, "name": "Kharadi" }, "geometry": { "type": "Point", "coordinates": [ 73.9416575, 18.5512763 ] } },
{ "type": "Feature", "properties": { "osm_id": "342118036", "code": 1002, "fclass": "town", "population": 33400, "name": "Wagholi" }, "geometry": { "type": "Point", "coordinates": [ 73.9833099, 18.5806299 ] } },
{ "type": "Feature", "properties": { "osm_id": "518295340", "code": 1050, "fclass": "locality", "population": 0, "name": "Sangamwadi" }, "geometry": { "type": "Point", "coordinates": [ 73.8642171, 18.5409571 ] } },
{ "type": "Feature", "properties": { "osm_id": "9342933672", "code": 1050, "fclass": "locality", "population": 0, "name": "Harinagar" }, "geometry": { "type": "Point", "coordinates": [ 73.9082325, 18.5522533 ] } },
{ "type": "Feature", "properties": { "osm_id": "511977254", "code": 1050, "fclass": "locality", "population": 0, "name": "Phulenagar" }, "geometry": { "type": "Point", "coordinates": [ 73.8775045, 18.5585335 ] } },
{ "type": "Feature", "properties": { "osm_id": "12866376981", "code": 1010, "fclass": "suburb", "population": 0, "name": "Yerawada" }, "geometry": { "type": "Point", "coordinates": [ 73.8954953, 18.5586854 ] } },
{ "type": "Feature", "properties": { "osm_id": "12866376980", "code": 1010, "fclass": "suburb", "population": 0, "name": "Viman Nagar" }, "geometry": { "type": "Point", "coordinates": [ 73.9133336, 18.5703877 ] } },
{ "type": "Feature", "properties": { "osm_id": "5027441894", "code": 1010, "fclass": "suburb", "population": 0, "name": "Vishrantwadi" }, "geometry": { "type": "Point", "coordinates": [ 73.87825, 18.57263 ] } },
{ "type": "Feature", "properties": { "osm_id": "2298617426", "code": 1010, "fclass": "suburb", "population": 0, "name": "Tingrenagar" }, "geometry": { "type": "Point", "coordinates": [ 73.8936578, 18.5766376 ] } },
{ "type": "Feature", "properties": { "osm_id": "7159295940", "code": 1050, "fclass": "locality", "population": 0, "name": "Treedom Park" }, "geometry": { "type": "Point", "coordinates": [ 73.8759555, 18.5857829 ] } },
{ "type": "Feature", "properties": { "osm_id": "343302811", "code": 1050, "fclass": "locality", "population": 0, "name": "Pune University Teachers Quarters" }, "geometry": { "type": "Point", "coordinates": [ 73.8216625, 18.5525103 ] } },
{ "type": "Feature", "properties": { "osm_id": "763455742", "code": 1050, "fclass": "locality", "population": 0, "name": "Ambedkar Chowk" }, "geometry": { "type": "Point", "coordinates": [ 73.8031083, 18.56025 ] } },
{ "type": "Feature", "properties": { "osm_id": "4616977052", "code": 1050, "fclass": "locality", "population": 0, "name": "Bremen Chowk" }, "geometry": { "type": "Point", "coordinates": [ 73.8148875, 18.5605481 ] } },
{ "type": "Feature", "properties": { "osm_id": "2668919264", "code": 1050, "fclass": "locality", "population": 0, "name": "Parihar Chowk" }, "geometry": { "type": "Point", "coordinates": [ 73.809218, 18.5605828 ] } },
{ "type": "Feature", "properties": { "osm_id": "245648364", "code": 1010, "fclass": "suburb", "population": 0, "name": "Aundh" }, "geometry": { "type": "Point", "coordinates": [ 73.8101957, 18.5618834 ] } },
{ "type": "Feature", "properties": { "osm_id": "245648621", "code": 1050, "fclass": "locality", "population": 0, "name": "Khadki" }, "geometry": { "type": "Point", "coordinates": [ 73.8391507, 18.5629737 ] } },
{ "type": "Feature", "properties": { "osm_id": "1226589191", "code": 1010, "fclass": "suburb", "population": 0, "name": "Dhanori" }, "geometry": { "type": "Point", "coordinates": [ 73.8913189, 18.5906707 ] } },
{ "type": "Feature", "properties": { "osm_id": "3385571866", "code": 1003, "fclass": "village", "population": 0, "name": "Khadakwasla" }, "geometry": { "type": "Point", "coordinates": [ 73.7757659, 18.4392428 ] } },
{ "type": "Feature", "properties": { "osm_id": "6505735229", "code": 1003, "fclass": "village", "population": 0, "name": "Bavdhan" }, "geometry": { "type": "Point", "coordinates": [ 73.7674068, 18.5074203 ] } },
{ "type": "Feature", "properties": { "osm_id": "761971236", "code": 1010, "fclass": "suburb", "population": 0, "name": "Bavdhan" }, "geometry": { "type": "Point", "coordinates": [ 73.7780873, 18.5209541 ] } },
{ "type": "Feature", "properties": { "osm_id": "4082315378", "code": 1010, "fclass": "suburb", "population": 0, "name": "Bavdhan Budruk" }, "geometry": { "type": "Point", "coordinates": [ 73.7651314, 18.521866 ] } },
{ "type": "Feature", "properties": { "osm_id": "9207339800", "code": 1010, "fclass": "suburb", "population": 0, "name": "Sus" }, "geometry": { "type": "Point", "coordinates": [ 73.752727, 18.5536672 ] } },
{ "type": "Feature", "properties": { "osm_id": "1351334403", "code": 1010, "fclass": "suburb", "population": 0, "name": "Sus Gaon" }, "geometry": { "type": "Point", "coordinates": [ 73.753904, 18.5541586 ] } },
{ "type": "Feature", "properties": { "osm_id": "8255415836", "code": 1050, "fclass": "locality", "population": 0, "name": "Beverley Hills" }, "geometry": { "type": "Point", "coordinates": [ 73.7740597, 18.5571933 ] } },
{ "type": "Feature", "properties": { "osm_id": "8255415835", "code": 1050, "fclass": "locality", "population": 0, "name": "Vasant Vihar" }, "geometry": { "type": "Point", "coordinates": [ 73.77353, 18.5594207 ] } },
{ "type": "Feature", "properties": { "osm_id": "6616602606", "code": 1010, "fclass": "suburb", "population": 0, "name": "Baner" }, "geometry": { "type": "Point", "coordinates": [ 73.7768573, 18.5642431 ] } },
{ "type": "Feature", "properties": { "osm_id": "1229112594", "code": 1003, "fclass": "village", "population": 0, "name": "Mhalunge" }, "geometry": { "type": "Point", "coordinates": [ 73.7558142, 18.5733175 ] } },
{ "type": "Feature", "properties": { "osm_id": "2271364684", "code": 1050, "fclass": "locality", "population": 0, "name": "Dasara Chowk" }, "geometry": { "type": "Point", "coordinates": [ 73.7761167, 18.5737452 ] } },
{ "type": "Feature", "properties": { "osm_id": "6616669384", "code": 1010, "fclass": "suburb", "population": 0, "name": "Balewadi" }, "geometry": { "type": "Point", "coordinates": [ 73.7689831, 18.5820266 ] } }
]
}
